City_ID,City,Lat,Lng,Max Temp,Humidity,Cloudiness,Wind Speed,Country,Date
0,laramie,41.3114,-105.5911,7.53,94,100,11.32,US,1683854163
1,hawaiian paradise park,19.5933,-154.9731,25.73,76,100,3.6,US,1683854164
2,blackmans bay,-43.0167,147.3167,14.18,74,96,1.16,AU,1683854166
3,stanley,54.868,-1.6985,9.84,97,75,3.09,GB,1683854166
4,iqaluit,63.7506,-68.5145,-10.06,92,72,1.67,CA,1683854166
5,adamstown,-25.066,-130.1015,21.93,59,100,7.77,PN,1683854152
6,papao,-17.75,-149.55,28.82,90,100,12.01,PF,1683854167
7,nemuro,43.3236,145.575,5.92,71,1,0.24,JP,1683854166
8,badger,64.8,-147.5333,16.14,39,75,2.57,US,1683854167
9,anadyr,64.75,177.4833,3.28,70,0,2.0,RU,1683854168
10,xinzhi,36.4989,111.7047,20.95,45,8,2.44,CN,1683854168
11,port mathurin,-19.6833,63.4167,25.54,76,56,9.45,MU,1683854168
12,dryden,49.7833,-92.7503,18.09,48,99,2.29,CA,1683854168
13,apolinario saravia,-24.4328,-63.9954,19.4,59,76,0.76,AR,1683854169
14,longyearbyen,78.2186,15.6401,-4.09,74,75,4.63,SJ,1683854169
15,igarka,67.4667,86.5833,-13.33,85,61,8.31,RU,1683854169
16,whitehorse,60.7161,-135.0538,15.01,33,15,5.36,CA,1683853922
17,utrik,11.2278,169.8474,27.37,79,49,7.42,MH,1683854170
18,port-aux-francais,-49.35,70.2167,8.35,89,100,20.3,TF,1683854170
19,ulsteinvik,62.3432,5.8487,10.5,95,100,0.89,NO,1683854170
20,yellowknife,62.456,-114.3525,15.03,39,49,3.15,CA,1683854171
21,nar'yan-mar,67.6713,53.087,0.4,98,100,3.48,RU,1683854171
22,nova sintra,14.8667,-24.7167,20.34,80,5,7.17,CV,1683854171
23,acarau,-2.8856,-40.12,25.87,83,36,3.18,BR,1683854171
24,port macquarie,-31.4333,152.9167,21.05,62,0,2.12,AU,1683854172
25,kabansk,52.0486,106.6528,9.49,46,56,2.93,RU,1683854173
26,puerto natales,-51.7236,-72.4875,6.59,88,100,2.16,CL,1683854173
27,thompson,55.7435,-97.8558,17.01,33,25,3.95,CA,1683854174
28,suwannaphum,15.6035,103.8021,30.48,63,100,2.54,TH,1683854174
29,antalaha,-14.9003,50.2788,23.02,81,18,2.52,MG,1683854174
30,ushuaia,-54.8,-68.3,9.81,62,75,4.63,AR,1683854175
31,urengoy,65.9667,78.3667,-12.28,91,66,4.15,RU,1683854175
32,santiago de cao,-7.9589,-79.2392,23.07,83,88,4.12,PE,1683854175
33,yakakent,41.6325,35.5289,10.81,85,100,2.02,TR,1683854176
34,grytviken,-54.2811,-36.5092,-4.58,70,1,3.25,GS,1683854176
35,vilyuchinsk,52.9306,158.4028,6.81,88,100,1.3,RU,1683854177
36,port elizabeth,-33.918,25.5701,16.17,94,20,9.26,ZA,1683854177
37,sao felix do xingu,-6.6447,-51.995,24.67,75,87,0.58,BR,1683854178
38,coquimbo,-29.9533,-71.3436,12.85,100,0,1.03,CL,1683854140
39,hasaki,35.7333,140.8333,20.16,49,81,3.96,JP,1683854179
40,punta arenas,-53.15,-70.9167,8.06,76,0,6.17,CL,1683854179
41,vilyuysk,63.7553,121.6247,4.77,41,2,2.47,RU,1683854180
42,rotonda west,26.8837,-82.2901,29.46,100,68,1.88,US,1683854181
43,kudahuvadhoo,2.6708,72.8944,27.81,80,100,7.77,MV,1683854181
44,hermanus,-34.4187,19.2345,8.22,75,92,6.56,ZA,1683854181
45,bethel,41.3712,-73.414,19.46,58,0,0.0,US,1683854182
46,invercargill,-46.4,168.35,11.75,84,98,3.92,NZ,1683854182
47,bargaal,11.2864,51.0773,27.96,82,98,0.6,SO,1683854182
48,steamboat springs,40.485,-106.8317,11.77,92,100,2.57,US,1683854182
49,ust-nera,64.5667,143.2,5.19,57,100,1.21,RU,1683854183
50,akrehamn,59.2667,5.1833,7.45,100,100,2.57,NO,1683854183
51,constantia,44.1833,28.65,5.39,64,22,5.12,RO,1683854183
52,chingola,-12.529,27.8838,11.38,79,0,1.62,ZM,1683854183
53,qionghai,19.2425,110.4642,25.98,90,100,2.79,CN,1683854184
54,loreto,22.2667,-101.9667,25.68,11,0,4.65,MX,1683854184
55,lompoc,34.6391,-120.4579,20.43,77,0,9.77,US,1683854185
56,verkhnevilyuysk,63.4453,120.3167,5.58,37,3,2.6,RU,1683854185
57,inhambane,-23.865,35.3833,20.65,86,0,2.73,MZ,1683854185
58,isafjordur,66.0755,-23.124,7.18,93,100,2.85,IS,1683854185
59,betio village,1.358,172.9211,31.02,78,100,5.85,KI,1683854187
60,zin'kiv,50.2081,34.3638,5.63,85,7,2.75,UA,1683854187
61,klyuchi,52.2667,79.1667,10.05,68,97,4.43,RU,1683854187
62,georgetown,5.4112,100.3354,29.97,79,20,0.0,MY,1683854086
63,labytnangi,66.6572,66.4183,-9.9,96,99,1.63,RU,1683854188
64,cadale,2.7603,46.3222,26.82,86,66,6.37,SO,1683854188
65,la passe,45.5549,-0.8967,11.66,85,75,1.69,FR,1683854188
66,gwaram,11.2764,9.8858,28.16,40,77,2.28,NG,1683854188
67,new norfolk,-42.7826,147.0587,14.84,61,95,1.43,AU,1683854189
68,walvis bay,-22.9575,14.5053,14.49,87,100,1.73,NA,1683854189
69,galveston,29.3669,-94.9669,27.32,88,100,6.69,US,1683854189
70,mount isa,-20.7333,139.5,24.87,25,0,5.14,AU,1683854189
71,at taj,24.2049,23.2857,21.2,36,97,3.56,LY,1683854189
72,harper,4.375,-7.7169,27.25,86,96,3.5,LR,1683854190
73,selfoss,63.9331,-20.9971,8.36,95,100,11.14,IS,1683854190
74,kingston,17.997,-76.7936,28.53,88,20,8.23,JM,1683854029
75,watsa,3.0372,29.5355,17.42,98,100,1.04,CD,1683854190
76,tura,25.5198,90.2201,28.24,47,5,0.88,IN,1683854191
77,college,64.8569,-147.8028,16.18,40,75,2.57,US,1683854191
78,waitangi,-43.9535,-176.5597,10.46,75,69,2.68,NZ,1683854191
79,olonkinbyen,70.9221,-8.7187,0.08,86,56,6.57,SJ,1683854191
80,tazovsky,67.4667,78.7,-17.43,98,87,3.32,RU,1683854192
81,wailua homesteads,22.0669,-159.378,26.44,70,20,5.14,US,1683854192
82,las lomitas,-24.7096,-60.593,15.9,69,0,2.38,AR,1683854192
83,puerto deseado,-47.7503,-65.8938,11.47,71,100,4.8,AR,1683854192
84,vilhena,-12.7406,-60.1458,22.46,73,100,1.31,BR,1683854193
85,quellon,-43.1167,-73.6167,13.14,94,100,3.09,CL,1683854193
86,haiku-pauwela,20.9219,-156.3051,28.01,48,40,8.75,US,1683854198
87,madras,13.0878,80.2785,29.42,89,75,3.09,IN,1683854198
88,sitangkai,4.6628,119.3928,28.92,71,89,1.95,PH,1683854198
89,ribeira grande,38.5167,-28.7,15.99,85,42,2.68,PT,1683854198
90,luderitz,-26.6481,15.1594,15.14,78,100,10.8,NA,1683854199
91,verkhneye kazanishche,42.7355,47.1378,8.48,91,100,0.64,RU,1683854199
92,brookings,44.3114,-96.7984,23.19,71,0,6.69,US,1683854036
93,formosa do rio preto,-11.0483,-45.1931,21.91,85,95,0.75,BR,1683853904
94,rio grande,-32.035,-52.0986,16.51,61,93,4.42,BR,1683853929
95,vila velha,-20.3297,-40.2925,23.97,87,75,0.0,BR,1683854199
96,choyr,46.3611,108.3611,6.57,47,2,5.0,MN,1683854199
97,nurota,40.5614,65.6886,20.6,36,44,4.86,UZ,1683854200
98,jaisalmer,26.9147,70.9181,29.88,28,0,5.6,IN,1683854200
99,whangarei,-35.7317,174.3239,16.16,54,7,3.65,NZ,1683854077
100,port alfred,-33.5906,26.891,15.66,97,100,0.45,ZA,1683854200
101,westport,41.1415,-73.3579,21.63,61,40,2.68,US,1683854200
102,ornskoldsvik,63.2909,18.7153,11.53,62,100,3.6,SE,1683854200
103,newman,37.3138,-121.0208,26.19,46,1,3.13,US,1683854200
104,flying fish cove,-10.4217,105.6791,26.82,94,100,5.66,CX,1683854200
105,zlynka,52.4267,31.7378,4.23,90,7,2.13,RU,1683854201
106,tiksi,71.6872,128.8694,-10.55,81,74,7.4,RU,1683854201
107,kencong,-8.2833,113.3667,27.0,83,27,0.54,ID,1683854201
108,keflavik,64.0049,-22.5624,8.26,100,100,10.29,IS,1683853905
109,novozavedennoye,44.2628,43.6381,9.61,81,100,2.26,RU,1683854201
110,jidong,45.2167,131.0833,19.92,27,100,2.95,CN,1683854201
111,belmonte,-15.8631,-38.8828,24.5,84,28,2.7,BR,1683854201
112,margaret river,-33.95,115.0667,13.72,65,61,5.11,AU,1683854201
113,geraldton,-28.7667,114.6,18.23,45,40,9.26,AU,1683854202
114,albany,42.6001,-73.9662,20.23,61,100,2.71,US,1683854126
115,cartagena,10.3997,-75.5144,27.79,83,20,3.6,CO,1683854002
116,novo aripuana,-5.1206,-60.3797,22.55,99,100,0.48,BR,1683854202
117,salinopolis,-0.6136,-47.3561,25.78,85,35,2.39,BR,1683854002
118,san ignacio de velasco,-16.3667,-60.95,20.6,93,76,1.53,BO,1683854202
119,onega,63.9061,38.1404,4.56,97,100,1.83,RU,1683854202
120,calvi,42.5,8.8333,14.35,48,20,7.72,FR,1683854203
121,braganca,-1.0536,-46.7656,22.92,99,31,0.8,BR,1683853994
122,bilibino,68.0546,166.4372,1.45,91,100,1.67,RU,1683854203
123,vorkuta,67.5,64.0,-11.73,94,23,2.19,RU,1683853917
124,parabel',58.6978,81.4825,0.69,69,20,5.76,RU,1683854203
125,alofi,-19.0595,-169.9187,27.94,74,75,6.17,NU,1683854203
126,taoudenni,22.6783,-3.9836,33.54,10,95,4.65,ML,1683854203
127,mar del plata,-38.0023,-57.5575,12.83,77,0,2.06,AR,1683854204
128,west island,-12.1568,96.8225,28.99,79,40,7.2,CC,1683854204
129,nikolayevsk-on-amure,53.1406,140.73,12.45,40,0,1.69,RU,1683854204
130,san luis de la loma,17.2706,-100.8939,28.23,71,82,2.38,MX,1683854204
131,pinarbasi,38.7229,36.3931,12.72,62,100,3.22,TR,1683854204
132,touros,-5.1989,-35.4608,26.76,74,97,4.31,BR,1683854204
133,truth or consequences,33.1284,-107.2528,27.17,10,0,2.57,US,1683854100
134,puerto ayora,-0.7393,-90.3518,25.86,97,95,3.01,EC,1683854205
135,rongelap,11.1635,166.8941,27.6,81,100,7.94,MH,1683854205
136,jamestown,42.097,-79.2353,18.8,39,0,2.06,US,1683854205
137,khandyga,62.6667,135.6,3.31,76,100,1.73,RU,1683854205
138,aykhal,66.0,111.5,0.03,96,100,8.14,RU,1683854205
139,colonia,50.9333,6.95,13.87,92,75,2.06,DE,1683854144
140,edinburgh of the seven seas,-37.0676,-12.3116,17.02,85,80,12.34,SH,1683854165
141,sumbawa besar,-8.5,117.4333,27.88,69,10,4.07,ID,1683854206
142,crane,31.3974,-102.3501,28.8,9,2,5.43,US,1683854206
143,gornopravdinsk,60.05,69.9,-0.07,59,100,0.48,RU,1683854206
144,petropavlovsk-kamchatsky,53.0452,158.6483,6.33,61,75,5.0,RU,1683854206
145,cangzhou,38.3167,116.8667,25.41,30,0,7.18,CN,1683854206
146,weno,7.4515,151.8468,31.97,70,40,3.09,FM,1683854206
147,al balyana,26.2357,32.0035,26.05,24,0,3.44,EG,1683854206
148,sorong,-0.8833,131.25,27.37,81,100,1.13,ID,1683854206
149,siwa oasis,29.2041,25.5195,19.71,58,0,3.75,EG,1683854207
150,pontianak,-0.0333,109.3333,28.99,83,40,1.54,ID,1683854207
151,atar,20.5169,-13.0499,30.69,26,23,7.77,MR,1683854207
152,kodiak,57.79,-152.4072,6.73,87,100,7.2,US,1683854207
153,urganch,41.55,60.6333,15.97,77,0,0.0,UZ,1683854207
154,saipan,15.1355,145.701,29.8,100,11,3.58,MP,1683853977
155,malango,-2.9627,119.9001,24.56,80,100,0.99,ID,1683854207
156,labrador city,52.9463,-66.9114,2.95,70,0,1.03,CA,1683854207
157,gilgit,35.9221,74.3087,14.55,42,75,1.85,PK,1683854208
158,fauske,67.2588,15.3918,7.19,100,100,1.93,NO,1683854208
159,atafu village,-8.5421,-172.5159,28.89,77,100,5.24,TK,1683854208
160,san patricio,28.017,-97.5169,27.92,85,0,5.83,US,1683854208
161,bonthe,7.5264,-12.505,27.16,84,88,2.43,SL,1683854208
162,toliara,-23.35,43.6667,22.41,85,5,1.29,MG,1683854208
163,avarua,-21.2078,-159.775,26.03,78,100,9.77,CK,1683854208
164,mejit,10.2753,170.8646,27.57,81,76,7.86,MH,1683854209
165,chui,-33.6971,-53.4616,15.07,56,86,2.68,UY,1683854209
166,liuboml,51.226,24.0373,5.16,80,0,3.68,UA,1683854209
167,ramadi,33.4226,43.3058,27.76,19,0,4.59,IQ,1683854209
168,massawa,15.6097,39.45,29.07,69,1,0.88,ER,1683854209
169,ketchikan,55.3422,-131.6461,11.99,76,100,3.6,US,1683854209
170,gao,16.6362,1.637,30.13,12,83,1.03,ML,1683854209
171,pervomayskoye,43.919,46.7102,11.34,71,100,2.5,RU,1683854210
172,sitka,57.0531,-135.33,11.94,54,100,5.14,US,1683854210
173,camana,-16.6228,-72.7111,19.68,82,58,2.63,PE,1683854210
174,faya-largeau,17.9257,19.1043,28.48,22,62,6.5,TD,1683854210
175,mount gambier,-37.8333,140.7667,14.37,64,4,2.51,AU,1683854210
176,oranjemund,-28.55,16.4333,13.18,83,100,9.39,NA,1683854210
177,revda,56.801,59.9303,3.2,70,83,2.19,RU,1683854210
178,piran,45.5278,13.5706,13.6,94,100,0.89,SI,1683854210
179,dudinka,69.4058,86.1778,-14.1,95,81,6.26,RU,1683854211
180,kasane,-17.8167,25.15,14.8,58,1,1.69,BW,1683854211
181,az zarqa,32.0728,36.088,20.95,49,15,1.03,JO,1683854211
182,dipayal,29.2608,80.94,22.43,34,0,1.55,NP,1683854211
183,mahina,-17.5065,-149.489,28.87,65,75,2.06,PF,1683854211
184,bubaque,11.2833,-15.8333,26.16,76,100,6.6,GW,1683854211
185,karratha,-20.7377,116.8463,25.37,22,0,7.93,AU,1683854211
186,canutama,-6.5339,-64.3831,23.35,98,100,0.28,BR,1683854212
187,polyarnyy,69.1989,33.4478,3.0,100,100,2.84,RU,1683854199
188,zhenjiang,32.2092,119.4342,19.59,52,52,1.31,CN,1683854212
189,bredasdorp,-34.5322,20.0403,10.69,80,72,2.92,ZA,1683854212
190,st. john's,47.5649,-52.7093,4.66,59,20,8.75,CA,1683854212
191,andrelandia,-21.7397,-44.3092,15.07,98,41,1.44,BR,1683854212
192,aasiaat,68.7098,-52.8699,-3.22,93,100,4.15,GL,1683854212
193,coracora,-15.0333,-73.7833,9.11,63,2,1.24,PE,1683854212
194,chiras,35.4167,65.9823,8.0,73,7,0.56,AF,1683854213
195,san carlos,9.6612,-68.5827,26.87,58,38,0.88,VE,1683854213
196,lihue,21.9789,-159.3672,26.77,69,20,5.14,US,1683854213
197,grand-popo,6.2804,1.8225,28.42,80,94,3.42,BJ,1683854213
198,talnakh,69.4865,88.3972,-14.33,85,46,4.98,RU,1683854213
199,lycksele,64.5954,18.6735,3.93,75,20,0.0,SE,1683854213
200,zaterechnyy,44.7931,45.2097,9.65,69,89,3.2,RU,1683854213
201,ancud,-41.8697,-73.8203,12.32,95,100,3.93,CL,1683854214
202,lerwick,60.1545,-1.1494,8.0,90,0,3.51,GB,1683854214
203,tolanaro,-25.0319,46.9987,21.55,93,99,4.34,MG,1683854214
204,pizarro,4.9533,-77.366,26.4,85,25,0.76,CO,1683854214
205,ryotsu-minato,38.0833,138.4333,13.83,55,3,2.69,JP,1683854214
206,merizo village,13.2658,144.6691,31.1,80,21,3.1,GU,1683854214
207,ukata,10.8312,5.8249,27.61,62,97,2.2,NG,1683854214
208,kabinda,-6.1333,24.4833,19.99,73,16,1.32,CD,1683854215
209,calama,-22.4667,-68.9333,10.27,12,0,3.09,CL,1683854215
210,okeho,8.0333,3.35,23.65,91,94,1.56,NG,1683854215
211,eirunepe,-6.6603,-69.8736,22.79,97,100,0.94,BR,1683854215
212,puerto carreno,6.189,-67.4859,27.02,72,98,2.2,CO,1683854215
213,gatton,-27.55,152.2833,22.52,46,4,4.06,AU,1683854215
214,enewetak,11.3474,162.3373,27.78,82,70,6.9,MH,1683854215
215,guerrero negro,27.9769,-114.0611,16.24,70,38,10.8,MX,1683854216
216,kapuskasing,49.4169,-82.4331,17.05,72,40,3.09,CA,1683854216
217,lebu,-37.6167,-73.65,12.49,95,100,1.88,CL,1683854216
218,kolonia,50.9333,6.95,13.87,92,75,2.06,DE,1683854144
219,conception bay south,47.4999,-52.9981,4.47,60,34,4.23,CA,1683854106
220,worland,44.0169,-107.9554,14.82,65,100,7.72,US,1683854135
221,porto velho,-8.7619,-63.9039,25.03,94,0,0.0,BR,1683854216
222,ilulissat,69.2167,-51.1,-2.99,86,100,7.2,GL,1683854216
223,kirensk,57.7853,108.1119,7.01,48,100,3.45,RU,1683854217
224,starobaltachevo,56.0013,55.9213,6.45,80,81,3.32,RU,1683854217
225,baiti,13.745,-14.7482,30.37,26,21,4.4,SN,1683854217
226,almyros,39.1822,22.7594,11.7,94,75,0.0,GR,1683854217
227,chadron,42.8294,-102.9999,14.82,91,100,4.63,US,1683854217
228,alice springs,-23.7,133.8833,17.75,32,0,4.63,AU,1683854217
229,mogocha,53.7333,119.7667,1.89,86,100,4.39,RU,1683854218
230,masina,-4.3836,15.3914,23.74,88,90,0.3,CD,1683854218
231,jose de freitas,-4.7564,-42.5756,26.53,90,48,1.69,BR,1683854218
232,kapa'a,22.0752,-159.319,27.18,69,20,5.14,US,1683854218
233,plouzane,48.3833,-4.6167,11.18,93,75,3.09,FR,1683854218
234,rutana,-3.8667,30.1,13.82,93,100,1.13,BI,1683854218
235,papatowai,-46.5619,169.4708,11.33,90,100,4.21,NZ,1683854218
236,tukrah,32.5341,20.5791,17.25,86,0,3.54,LY,1683854218
237,sao gabriel da cachoeira,-0.1303,-67.0892,23.0,96,58,0.49,BR,1683854219
238,namtsy,62.7161,129.6658,2.2,35,100,4.05,RU,1683854219
239,mykhaylivka,47.2724,35.2224,6.95,81,0,2.56,UA,1683854219
240,putina,-15.4667,-69.4333,5.37,83,100,3.42,PE,1683854219
241,pauini,-7.7136,-66.9764,22.63,98,99,0.6,BR,1683854219
242,egilsstadir,65.2653,-14.3948,7.95,76,0,7.72,IS,1683854220
243,cockburn town,21.4612,-71.1419,26.86,79,5,6.24,TC,1683854220
244,labasa,-16.4167,179.3833,29.15,68,25,3.87,FJ,1683854220
245,hammerfest,70.6634,23.6821,6.25,100,75,7.72,NO,1683854220
246,'alaqahdari dishu,30.4374,63.313,27.19,18,4,1.33,AF,1683854220
247,port blair,11.6667,92.75,28.65,78,100,10.64,IN,1683854220
248,sisimiut,66.9395,-53.6735,-2.58,87,100,6.23,GL,1683854220
249,nguigmi,14.2495,13.1092,29.17,20,100,3.38,NE,1683854221
250,ishigaki,24.3448,124.1572,26.07,61,20,4.12,JP,1683854221
251,illela,13.7292,5.2975,31.05,44,100,6.16,NG,1683854221
252,portland,45.5234,-122.6762,26.37,37,20,3.09,US,1683854040
253,udachny,66.4167,112.4,3.03,59,100,6.64,RU,1683854221
254,essaouira,31.5125,-9.77,17.72,80,1,4.63,MA,1683854221
255,linkou,45.3,130.2833,19.19,31,100,3.47,CN,1683854222
256,kuanda,56.3161,116.0806,3.59,57,37,2.46,RU,1683854222
257,ta`u,-14.2336,-169.5144,27.92,74,5,3.49,AS,1683854222
258,sabang,5.8933,95.3214,28.7,74,98,1.94,ID,1683854223
259,paracuru,-3.41,-39.0306,25.39,82,78,2.26,BR,1683854223
260,carnarvon,-24.8667,113.6333,23.14,48,0,1.06,AU,1683854223
261,freetown,8.484,-13.2299,26.86,87,24,2.85,SL,1683854223
262,agat village,13.3886,144.6585,31.06,76,40,4.63,GU,1683854229
263,beau vallon,-20.4189,57.6953,24.13,83,40,5.66,MU,1683854229
264,kiunga,-6.1219,141.2906,27.98,82,90,1.04,PG,1683854229
265,linxia chengguanzhen,35.6003,103.2064,12.92,34,100,0.99,CN,1683854229
266,churapcha,62.0025,132.4325,2.18,41,100,3.3,RU,1683854230
267,aurad,18.25,77.4333,29.83,38,73,4.57,IN,1683854230
268,birao,10.2849,22.7882,28.57,55,99,1.96,CF,1683854230
269,vinton,37.281,-79.897,23.36,64,20,2.57,US,1683854231
270,daru,-9.0763,143.2092,26.27,91,100,5.0,PG,1683854231
271,kerikeri,-35.2268,173.9474,17.17,68,23,0.89,NZ,1683854231
272,geneseo,42.7959,-77.8169,19.47,63,8,2.6,US,1683854231
273,escanaba,45.7453,-87.0646,16.98,51,0,2.57,US,1683854232
274,ilha de mocambique,-15.0342,40.7358,25.58,75,99,1.58,MZ,1683854232
275,jawf al maqbabah,13.8378,45.8349,23.98,62,100,1.52,YE,1683854232
276,san pedro pochutla,15.7333,-96.4667,29.84,66,96,4.27,MX,1683854233
277,bamboo flat,11.7,92.7167,28.66,78,100,10.65,IN,1683854233
278,roma,43.2128,-75.4557,16.51,66,0,1.54,US,1683854055
279,mawu,29.5923,107.3139,15.97,92,100,1.11,CN,1683854233
280,vorgashor,67.5833,63.95,-11.79,94,35,2.35,RU,1683854234
281,nenjiang,49.1833,125.2167,18.76,40,100,5.15,CN,1683854234
282,fonte boa,-2.4959,-66.2662,22.05,99,93,0.36,BR,1683854234
283,san nicolas,18.1725,120.5953,31.95,55,20,2.06,PH,1683854234
284,tsiombe,-25.3,45.4833,21.7,78,46,1.17,MG,1683854235
285,sakaiminato,35.55,133.2333,19.96,55,75,4.12,JP,1683854235
286,hamina,60.5697,27.1979,11.6,68,7,3.24,FI,1683854235
287,puerto boyaca,5.9758,-74.5885,26.37,83,100,0.93,CO,1683854235
288,akureyri,65.6835,-18.0878,9.96,66,0,5.14,IS,1683854236
289,lozova,48.8894,36.3176,5.52,83,2,2.93,UA,1683854236
290,laguna,38.421,-121.4238,26.89,39,0,3.09,US,1683854236
291,east london,-33.0153,27.9116,18.5,83,99,5.58,ZA,1683854236
292,thunder bay,48.4001,-89.3168,15.22,83,74,0.9,CA,1683853953
293,ha giang,22.8333,104.9833,25.1,80,94,0.53,VN,1683854237
294,ebon,4.582,168.6964,27.54,78,100,2.6,MH,1683854237
295,peace river,56.2501,-117.286,21.17,42,75,3.6,CA,1683854243
296,kurmuk,10.55,34.2833,26.27,36,6,1.35,SD,1683854243
297,iskateley,67.6803,53.1512,0.36,97,100,3.55,RU,1683854243
298,island harbour,50.724,-1.2758,11.63,94,16,0.45,GB,1683854243
299,tchintabaraden,15.8969,5.7985,31.2,34,41,4.71,NE,1683854244
300,saldanha,-33.0117,17.9442,14.1,65,67,11.02,ZA,1683854245
301,shimokizukuri,40.8061,140.3861,16.23,53,37,1.49,JP,1683854245
302,mirnyy,62.5353,113.9611,1.14,82,100,3.93,RU,1683854245
303,midvagur,62.0511,-7.1939,9.46,87,100,0.0,FO,1683854245
304,crucecita,-28.95,-58.9833,11.74,82,0,2.81,AR,1683854245
305,tual,-5.6667,132.75,26.27,86,100,3.65,ID,1683854246
306,heroica ciudad de tlaxiaco,17.2667,-97.6833,16.99,87,100,2.72,MX,1683854246
307,carbonear,47.7332,-53.2148,5.62,63,13,5.95,CA,1683854246
308,puerto piray,-26.4678,-54.7148,12.03,75,7,0.99,AR,1683854246
309,the pas,53.8251,-101.2541,23.01,31,100,2.06,CA,1683854247
310,bodaybo,57.8506,114.1933,2.99,83,49,0.99,RU,1683854247
311,dinguiraye,11.3,-10.7167,29.28,27,94,1.31,GN,1683854247
312,calabozo,8.9242,-67.4293,27.61,58,100,1.88,VE,1683854247
313,puerto quijarro,-17.7833,-57.7667,25.58,67,100,1.31,BO,1683854248
314,dzhangala,49.2167,50.3333,7.6,82,0,4.48,KZ,1683854248
315,faridpur,23.6,89.8333,29.23,65,100,3.24,BD,1683854248
316,louis trichardt,-23.0439,29.9032,15.48,61,0,1.21,ZA,1683854249
317,boende,-0.2167,20.8667,22.55,85,18,0.42,CD,1683854249
318,ascension,30.2169,-90.9001,27.22,97,0,0.0,US,1683854250
319,noumea,-22.2763,166.4572,25.0,99,92,6.29,NC,1683854122
320,kanggye,40.9695,126.5852,18.79,50,100,1.37,KP,1683854250
321,maych'ew,12.7875,39.5422,14.7,69,13,1.11,ET,1683854251
322,kikwit,-5.041,18.8162,22.13,74,17,1.02,CD,1683854251
323,dunedin,-45.8742,170.5036,13.78,70,100,4.47,NZ,1683854251
324,acapulco de juarez,16.8634,-99.8901,28.9,70,75,2.06,MX,1683853973
325,santo antonio do ica,-3.1022,-67.9397,22.54,98,89,0.61,BR,1683854252
326,arno,60.1167,18.6333,7.1,59,71,3.93,SE,1683854252
327,leninskoye,41.7589,69.3864,19.04,44,96,3.12,KZ,1683854252
328,afaahiti,-17.75,-149.2833,27.93,89,100,10.55,PF,1683854253
329,guanare,9.0418,-69.7421,33.01,52,98,0.51,VE,1683854253
330,ciudad lazaro cardenas,17.9583,-102.2,28.07,72,99,4.36,MX,1683854253
331,shilovo,54.3204,40.874,5.85,89,100,3.03,RU,1683854254
332,haysville,37.5645,-97.3523,24.15,74,0,7.72,US,1683854254
333,helensburgh,56.0061,-4.7265,10.91,92,17,0.45,GB,1683854255
334,partizansk,43.1258,133.1339,17.15,41,48,1.98,RU,1683854255
335,pipar,26.3856,73.5378,29.03,19,0,2.9,IN,1683854255
336,mossel bay,-34.1831,22.146,11.96,69,100,6.69,ZA,1683854255
337,sittwe,20.15,92.9,28.51,78,100,4.1,MM,1683854255
338,susanville,40.4163,-120.653,21.48,27,0,2.57,US,1683853964
339,swakopmund,-22.6833,14.5333,14.43,88,100,2.68,NA,1683854256
340,coxim,-18.5067,-54.76,23.76,81,100,1.94,BR,1683854256
341,qaqortoq,60.7167,-46.0333,1.68,88,100,0.95,GL,1683854256
342,lazaro cardenas,17.9583,-102.2,28.07,72,99,4.36,MX,1683854086
343,chubek,37.6137,69.7061,22.04,35,96,1.58,TJ,1683854257
344,lorengau,-2.0226,147.2712,28.87,76,98,2.31,PG,1683854257
345,kolpashevo,58.3131,82.9089,1.02,70,10,5.27,RU,1683854257
346,taro,-8.3862,115.28,24.0,93,95,2.15,ID,1683854096
347,kasempa,-13.4584,25.8338,12.77,57,0,2.31,ZM,1683854258
348,plesetsk,62.708,40.2916,8.52,79,100,2.31,RU,1683854258
349,kimbe,-5.5502,150.1429,31.3,64,60,1.39,PG,1683854258
350,hamilton,39.1834,-84.5333,23.47,66,0,3.6,US,1683854178
351,fort st. john,56.2499,-120.8529,20.98,30,52,2.52,CA,1683854155
352,tres passos,-27.4556,-53.9319,10.87,78,98,1.9,BR,1683854258
353,zhanjiang,21.2815,110.3427,22.8,96,100,3.62,CN,1683854175
354,alesund,62.4723,6.1549,11.53,98,100,0.0,NO,1683854258
355,sergiyev posad,56.3,38.1333,8.56,86,50,2.25,RU,1683854259
356,port lincoln,-34.7333,135.8667,16.22,58,21,4.6,AU,1683854230
357,velyki kopani,46.4868,32.975,7.67,61,0,2.4,UA,1683854259
358,wanxian,30.8039,108.3897,21.13,74,66,0.25,CN,1683854259
359,la sebala du mornag,36.6793,10.292,17.81,82,20,1.54,TN,1683854259
360,hithadhoo,-0.6,73.0833,28.51,75,100,7.19,MV,1683854259
361,baukau,51.5526,7.2042,13.92,95,100,2.24,DE,1683854260
362,nagqu,31.5,92.0,-3.64,53,100,2.45,CN,1683854260
363,siverek,37.755,39.3167,18.56,44,99,3.02,TR,1683854260
364,al jawf,29.5,38.75,24.0,17,0,2.43,SA,1683854260
365,tobarra,38.5921,-1.6919,14.32,89,1,1.03,ES,1683854260
366,madera,37.1666,-119.8343,25.31,44,1,4.05,US,1683853996
367,polyarnyye zori,67.3661,32.4981,4.13,96,100,1.29,RU,1683854260
368,camacupa,-12.0167,17.4833,12.53,57,0,0.75,AO,1683854261
369,fale old settlement,-9.3852,-171.2468,28.74,77,25,6.18,TK,1683854261
370,itoman,26.1247,127.6694,24.43,60,20,5.14,JP,1683854261
371,sarmiento,-45.5882,-69.07,14.29,53,100,8.13,AR,1683854261
372,madang,-5.2246,145.7966,30.98,63,97,0.59,PG,1683854261
373,toamasina,-18.1667,49.3833,22.95,87,47,2.35,MG,1683854261
374,isangel,-19.55,169.2667,27.06,83,100,2.06,VU,1683854216
375,holualoa,19.6228,-155.9522,25.91,86,40,5.14,US,1683854262
376,sinop,41.7711,34.8709,6.05,95,100,2.2,TR,1683854262
377,spring creek,40.7266,-115.5859,16.83,33,100,1.21,US,1683854262
378,palmas,-10.2128,-48.3603,25.93,83,20,1.54,BR,1683854262
379,oropesa del mar,40.1,0.15,15.21,51,79,4.33,ES,1683854262
380,bel ombre,-4.6167,55.4167,27.91,78,40,5.14,SC,1683854262
381,svetlyy,54.675,20.1347,7.76,72,8,3.63,RU,1683854262
382,taltal,-25.4,-70.4833,16.9,84,32,1.78,CL,1683854221
383,farafangana,-22.8167,47.8333,21.94,91,100,1.81,MG,1683854263
384,kavaratti,10.5669,72.642,29.23,65,100,0.94,IN,1683854263
385,hobyo,5.3505,48.5268,27.02,85,100,9.62,SO,1683854263
386,eureka,40.8021,-124.1637,18.71,81,93,4.02,US,1683854263
387,ambovombe,-25.1667,46.0833,21.81,77,83,3.1,MG,1683854263
388,mhamid,29.82,-5.72,28.16,14,20,4.0,MA,1683854263
389,balakovo,52.0278,47.8007,9.59,94,100,4.31,RU,1683854263
390,hovd,48.0056,91.6419,14.58,32,9,3.82,MN,1683854264
391,nyurba,63.2842,118.3319,5.36,45,0,3.69,RU,1683854264
392,ulladulla,-35.35,150.4667,18.76,43,27,1.51,AU,1683854264
393,katsuura,35.1333,140.3,18.01,56,87,3.81,JP,1683854264
394,robertsport,6.7533,-11.3686,27.71,83,100,3.25,LR,1683854264
395,las flores,34.0372,-118.6359,23.52,77,0,5.66,US,1683854264
396,howrah,22.5892,88.3103,29.0,84,75,1.54,IN,1683854265
397,fier,40.7239,19.5561,12.75,82,0,2.57,AL,1683854265
398,mount pleasant,32.7941,-79.8626,22.22,82,20,3.09,US,1683854265
399,fisterra,42.9049,-9.2629,13.19,80,44,7.32,ES,1683854154
400,elliot,-31.3333,27.85,9.73,74,100,0.62,ZA,1683854265
401,mendi,-6.1761,143.6513,22.12,58,25,1.77,PG,1683854265
402,wete,-5.0559,39.7294,23.88,91,28,2.81,TZ,1683854265
403,uturoa,-16.7333,-151.4333,25.98,82,100,6.61,PF,1683854265
404,sangin,32.0728,64.8359,25.61,21,0,3.5,AF,1683854266
405,pedernales,18.0384,-71.744,26.58,72,1,1.95,DO,1683854266
406,beitbridge,-22.2167,30.0,18.82,53,0,1.33,ZW,1683854266
407,quelimane,-17.8786,36.8883,19.71,95,3,1.51,MZ,1683854266
408,sodra sandby,56.5667,16.6167,9.38,70,10,3.26,SE,1683854266
409,robstown,27.7903,-97.6689,28.19,87,75,6.69,US,1683854266
410,libenge,3.65,18.6333,23.03,90,97,1.05,CD,1683854266
411,sharanga,57.1775,46.5396,6.52,89,7,2.22,RU,1683854267
412,amahai,-3.3333,128.9167,25.1,93,100,0.83,ID,1683854267
413,tres arroyos,-38.3739,-60.2798,9.38,53,41,4.16,AR,1683854267
414,taksimo,56.3444,114.8794,5.02,40,4,1.79,RU,1683854267
415,banda aceh,5.5577,95.3222,28.1,77,98,0.56,ID,1683854267
416,ondjiva,-17.0667,15.7333,17.76,37,34,1.71,AO,1683854267
417,fort bragg,35.139,-79.006,23.32,65,0,3.6,US,1683854267
418,villa regina,-39.1,-67.0667,14.99,22,96,3.87,AR,1683854267
419,shache,38.4167,77.2406,17.62,17,94,0.91,CN,1683854268
420,moshi,-3.35,37.3333,18.11,93,21,0.75,TZ,1683854268
421,huarmey,-10.0681,-78.1522,22.48,85,100,3.74,PE,1683854231
422,ust'-ilimsk,58.0006,102.6619,8.49,40,100,4.4,RU,1683854268
423,sawakin,19.1059,37.3321,27.01,43,0,1.0,SD,1683854269
424,lockwood,45.8191,-108.4149,15.23,69,100,3.6,US,1683854269
425,gadzhiyevo,69.2551,33.3362,2.44,100,100,2.73,RU,1683854269
426,dalandzadgad,43.5708,104.425,9.0,36,6,1.75,MN,1683854269
427,santa cruz,-17.8,-63.1667,21.7,83,75,0.0,BO,1683854270
428,bahir dar,11.5936,37.3908,22.01,24,26,0.96,ET,1683854270
429,runing,33.0011,114.3542,21.8,44,100,2.53,CN,1683854270
430,nova xavantina,-14.6667,-52.35,21.95,71,85,1.03,BR,1683854270
431,faliraki,36.3398,28.1994,18.38,78,20,8.23,GR,1683854064
432,masterton,-40.9597,175.6575,11.6,53,13,3.99,NZ,1683854228
433,grand falls-windsor,48.9332,-55.6649,4.17,66,43,1.29,CA,1683854270
434,portage la prairie,49.9728,-98.2926,19.94,63,100,4.63,CA,1683854271
435,peniche,39.3558,-9.3811,15.16,84,0,12.08,PT,1683854271
436,fallon,39.4735,-118.7774,22.93,20,20,4.12,US,1683854105
437,m'sila,35.7058,4.5419,18.11,57,4,4.5,DZ,1683854271
438,george town,5.4112,100.3354,29.97,79,20,0.0,MY,1683854124
439,yerofey pavlovich,53.9667,121.9667,9.05,58,100,3.1,RU,1683854271
440,saint-pierre,-21.3393,55.4781,21.82,68,0,2.06,RE,1683854271
441,arraial do cabo,-22.9661,-42.0278,22.78,73,88,4.75,BR,1683854271
442,zouerate,22.7187,-12.4521,30.69,21,79,8.83,MR,1683854272
443,lodwar,3.1191,35.5973,27.85,50,46,5.36,KE,1683854272
444,comodoro rivadavia,-45.8667,-67.5,16.92,42,0,9.26,AR,1683854030
445,yaren,-0.5472,166.916,28.77,76,99,5.67,NR,1683854272
446,inderbor,48.55,51.7833,10.45,77,0,5.46,KZ,1683854272
447,maitum,6.0392,124.4986,29.74,74,35,1.96,PH,1683854272
448,klaeng,12.7797,101.6483,31.64,66,26,2.1,TH,1683854272
449,okha,53.5739,142.9478,5.6,69,8,1.93,RU,1683854273
450,wynyard,-41.0,145.7167,13.32,83,40,3.45,AU,1683854273
451,yuzhno-kurilsk,44.0306,145.8556,6.73,67,9,4.04,RU,1683854273
452,oromocto,45.8351,-66.4792,14.96,44,40,4.12,CA,1683854273
453,zeribet el oued,34.6828,6.5111,24.93,37,31,6.4,DZ,1683854273
454,waingapu,-9.6567,120.2641,27.44,66,100,6.63,ID,1683854273
455,vila franca do campo,37.7167,-25.4333,17.23,89,99,0.97,PT,1683854193
456,puerto baquerizo moreno,-0.9,-89.6,26.22,87,100,3.93,EC,1683854274
457,codrington,-38.2667,141.9667,14.17,69,97,4.05,AU,1683854274
458,port douglas,-16.4833,145.4667,24.78,81,100,7.37,AU,1683854274
459,happy valley-goose bay,53.3168,-60.3315,3.17,52,20,3.6,CA,1683854274
460,yung shue wan,22.2333,114.1167,24.82,80,100,0.89,HK,1683854274
461,minas de marcona,-15.2119,-75.1103,14.47,86,44,4.38,PE,1683854274
462,atbasar,51.8,68.3333,10.67,60,11,4.89,KZ,1683854274
463,sirhind,30.6456,76.3825,26.97,15,68,1.58,IN,1683854274
464,sumberpucung,-8.1586,112.4829,26.18,84,57,2.07,ID,1683854275
465,lluta,-16.0147,-72.0142,12.0,47,94,1.26,PE,1683854275
466,bata,1.8639,9.7658,26.1,89,92,1.82,GQ,1683854275
467,diamantino,-14.4086,-56.4461,21.73,84,47,1.27,BR,1683854275
468,ayancik,41.9447,34.5861,10.93,81,100,6.46,TR,1683854280
469,yangambi,0.8102,24.4336,20.74,98,100,0.78,CD,1683854280
470,sambava,-14.2667,50.1667,22.58,87,3,3.27,MG,1683854280
471,zalishchyky,48.6447,25.7339,6.14,85,6,2.9,UA,1683854281
472,benalla,-36.55,145.9833,17.39,58,100,1.26,AU,1683854281
473,lubango,-14.9172,13.4925,15.16,45,36,0.57,AO,1683854281
474,puerto santa,-8.9906,-78.6456,22.46,86,100,4.63,PE,1683854281
475,rouissat,31.9243,5.3502,30.04,14,0,5.66,DZ,1683854281
476,parras de la fuente,25.4167,-102.1833,26.78,8,2,3.0,MX,1683854281
477,kaa-khem,51.6833,94.7333,12.49,30,100,1.51,RU,1683854282
478,sao miguel do araguaia,-13.275,-50.1628,24.09,60,6,2.0,BR,1683854282
479,harstad,68.799,16.5293,6.2,99,98,5.81,NO,1683854187
480,levuka,50.1834,-105.4011,14.9,88,100,4.99,CA,1683854282
481,vadso,70.0744,29.7487,6.49,93,100,3.09,NO,1683854283
482,riti,7.9167,9.6167,27.74,67,68,2.45,NG,1683854283
483,bulungu,-4.55,18.6,22.7,80,32,0.78,CD,1683854283
484,kaitong,44.8135,123.15,22.12,27,21,8.97,CN,1683854283
485,orange farm,-26.4833,27.8667,13.53,44,0,1.0,ZA,1683854284
486,ishinomaki,38.4167,141.3,14.0,54,0,1.36,JP,1683854284
487,pisco,-13.7,-76.2167,20.03,83,100,4.12,PE,1683854284
488,fruita,39.1589,-108.729,21.64,28,0,0.0,US,1683854285
489,cruzeiro do sul,-29.5128,-51.9853,14.18,88,65,1.04,BR,1683854285
490,atamyrat,37.8357,65.2106,23.39,37,89,2.88,TM,1683854285
491,port-vila,-17.7338,168.3219,27.78,65,100,7.2,VU,1683854285
492,kota bharu,6.1333,102.2386,28.97,84,20,2.06,MY,1683854286
493,kampene,-3.6,26.6667,21.06,95,100,0.81,CD,1683854286
494,al minya,28.1099,30.7503,24.28,29,0,3.31,EG,1683854286
495,kuta,-8.7233,115.1723,27.97,83,75,7.2,ID,1683854287
496,horby,50.0468,32.4907,5.85,86,1,2.48,UA,1683854287
497,mount pearl,47.5166,-52.7813,4.19,59,20,8.75,CA,1683854287
498,kayangel,8.0823,134.7173,28.8,72,15,1.14,PW,1683854287
499,aligudarz,33.4006,49.6949,10.41,39,0,1.77,IR,1683854288
500,vranov nad toplou,48.8884,21.6848,11.08,86,36,1.23,SK,1683854288
501,zhosaly,45.4878,64.0781,22.01,36,37,4.16,KZ,1683854288
502,tayshet,55.9342,98.0044,6.56,85,100,1.94,RU,1683854288
503,lubang,13.8584,120.124,28.57,78,21,7.85,PH,1683854289
504,mil'kovo,55.6078,37.7956,10.23,80,60,2.44,RU,1683854289
505,guangyuan,32.442,105.823,21.5,47,98,1.13,CN,1683854289
506,prairie ridge,47.1376,-122.1487,24.13,38,0,2.57,US,1683854290
507,trondheim,63.4305,10.3951,9.05,84,100,1.3,NO,1683854290
508,belel,7.05,14.4333,16.75,83,94,0.49,CM,1683854290
509,babolsar,36.7025,52.6576,18.21,84,7,3.07,IR,1683854291
510,ocara,-4.4908,-38.5967,22.41,94,46,1.35,BR,1683854291
511,nchelenge,-9.3451,28.734,18.48,82,0,1.9,ZM,1683854291
512,tuban,-6.8976,112.0649,27.32,83,81,2.58,ID,1683854291
513,zinder,13.8072,8.9881,27.91,15,100,2.24,NE,1683854292
514,buala,-8.145,159.5921,29.52,75,55,4.59,SB,1683854292
515,az zawiyah,32.0963,35.0398,25.06,64,0,1.54,PS,1683854292
516,barentu,15.1139,37.5928,26.51,20,3,1.35,ER,1683854293
517,nadi,-17.8,177.4167,31.0,51,20,5.14,FJ,1683854293
518,recani,31.2846,-4.2688,26.36,18,88,7.6,MA,1683854294
519,mokhsogollokh,61.4681,128.9203,2.55,42,100,3.55,RU,1683854294
520,chonchi,-42.6128,-73.8092,12.84,96,100,1.84,CL,1683854294
521,kourou,5.1552,-52.6478,24.03,91,100,2.69,GF,1683854160
522,beykonak,36.3257,30.303,20.65,58,34,1.85,TR,1683854295
523,seeb,23.6703,58.1891,35.05,26,0,4.63,OM,1683854295
524,hami,42.8,93.45,21.38,11,57,4.69,CN,1683854295
525,al ghayzah,16.2079,52.176,27.25,69,8,1.02,YE,1683854295
526,tillaberi,14.2117,1.4531,31.14,45,30,6.64,NE,1683854296
527,chabahar,25.2919,60.643,29.26,64,91,3.88,IR,1683854296
528,severo-yeniseyskiy,60.3725,93.0408,-0.63,92,100,2.55,RU,1683854242
529,tekeli,44.83,78.8239,16.5,46,100,3.1,KZ,1683854296
530,angaur state,6.906,134.13,28.69,74,51,1.16,PW,1683854297
531,lodja,-3.4833,23.4333,21.69,80,71,0.55,CD,1683854297
532,ouallam,14.3188,2.0866,31.23,45,97,10.8,NE,1683854297
533,santa isabel,-23.3156,-46.2214,17.84,94,94,0.8,BR,1683854003
534,mahebourg,-20.4081,57.7,24.16,83,40,5.66,MU,1683854298
535,nabire,-3.3667,135.4833,26.81,89,100,0.46,ID,1683854298
536,cestos city,5.46,-9.5828,26.54,84,100,2.18,LR,1683854298
537,behompy,-23.2496,43.8557,21.03,87,7,1.43,MG,1683854299
538,tindouf,27.6711,-8.1474,27.25,22,0,8.23,DZ,1683854299
539,dawson creek,55.7666,-120.2362,21.43,35,21,2.81,CA,1683854059
540,torrington,41.8007,-73.1212,19.23,55,49,1.26,US,1683854206
541,nafpaktos,38.3917,21.8275,14.43,80,9,2.39,GR,1683854299
542,howard springs,-12.497,131.047,27.12,40,29,5.07,AU,1683854300
543,kailua-kona,19.6406,-155.9956,27.98,86,40,5.14,US,1683854129
544,ichnya,50.8626,32.3942,5.63,90,1,2.21,UA,1683854300
545,caratinga,-19.7897,-42.1392,19.27,87,11,1.3,BR,1683854300
546,dolores,-36.3132,-57.6792,8.77,84,9,1.92,AR,1683854301
547,san felipe,10.3399,-68.7425,22.29,98,97,1.1,VE,1683854301
548,naze,28.3667,129.4833,22.51,63,14,4.73,JP,1683854301
549,la peca,-5.6111,-78.435,21.05,85,69,1.67,PE,1683854301
550,la ronge,55.1001,-105.2842,21.12,28,40,2.57,CA,1683854302
551,binzhou,37.3667,118.0167,24.82,33,0,5.54,CN,1683854302
552,errachidia,31.9275,-4.4285,27.03,16,0,4.63,MA,1683854302
553,palikir - national government center,6.9248,158.1611,32.41,66,75,4.12,FM,1683854302
554,sept-iles,50.2001,-66.3821,8.36,63,91,0.28,CA,1683854103
555,kasongo,-4.45,26.6667,20.65,89,98,0.88,CD,1683854303
556,prado,-17.3411,-39.2208,23.6,81,89,3.19,BR,1683854293
557,laojunmiao,39.8333,97.7333,14.45,14,0,3.15,CN,1683854303
558,tochio-honcho,37.4667,139.0,16.97,42,2,1.34,JP,1683854304
559,kalachinsk,55.0529,74.5751,5.68,69,7,5.55,RU,1683854304
560,al 'amarah,31.8406,47.1396,28.45,14,0,3.05,IQ,1683854305
561,platon sanchez,21.2833,-98.3667,31.45,61,0,5.23,MX,1683854305
562,belyy yar,53.6039,91.3903,9.94,76,0,7.0,RU,1683854305
563,ingeniero jacobacci,-41.3427,-69.5448,9.62,68,90,4.27,AR,1683854306
564,ballenstedt,51.7167,11.2333,11.36,89,66,0.88,DE,1683854306
565,parral,26.9333,-105.6667,26.1,7,0,0.55,MX,1683854138
566,bissora,12.2231,-15.4475,26.29,54,83,1.78,GW,1683854307
567,lucheng,31.2336,117.2806,20.41,55,8,1.85,CN,1683854307
568,nouadhibou,20.931,-17.0347,17.65,93,5,7.71,MR,1683854307
569,swift current,50.2834,-107.8014,13.45,64,100,3.16,CA,1683854129
570,temiskaming shores,47.4938,-79.7153,14.89,86,14,2.37,CA,1683854308
571,arauca,7.0847,-70.7591,26.0,100,99,0.51,CO,1683854308
572,coreau,-3.5333,-40.6567,22.48,96,42,0.59,BR,1683854308
573,saynshand,44.8824,110.1163,8.4,61,96,5.78,MN,1683854309
574,hilo,19.7297,-155.09,29.04,78,100,3.6,US,1683854309
